SatelliteSimulation/Scenarios/Angie/Satellite-CougSat-To-Facility-EchoStar_Spokane_Station Access.csv

"Access","Start Time (UTCG)","Stop Time (UTCG)","Duration (sec)"
1,1 Jun 2019 20:00:00.000,1 Jun 2019 20:05:22.171,322.171
2,1 Jun 2019 21:53:18.138,1 Jun 2019 22:25:09.503,1911.366
3,2 Jun 2019 00:13:38.752,2 Jun 2019 00:39:33.333,1554.580
4,2 Jun 2019 10:48:48.667,2 Jun 2019 11:08:54.641,1205.974
5,2 Jun 2019 12:59:48.246,2 Jun 2019 13:30:23.564,1835.318
6,2 Jun 2019 15:17:49.288,2 Jun 2019 15:50:38.260,1968.972
7,2 Jun 2019 17:39:59.452,2 Jun 2019 18:12:19.628,1940.176
8,2 Jun 2019 20:01:54.593,2 Jun 2019 20:34:35.183,1960.590
9,2 Jun 2019 22:22:07.240,2 Jun 2019 22:53:28.548,1881.308
10,3 Jun 2019 00:43:04.463,3 Jun 2019 01:05:49.101,1364.638
11,3 Jun 2019 11:14:53.210,3 Jun 2019 11:38:34.563,1421.352
12,3 Jun 2019 13:27:47.684,3 Jun 2019 13:59:14.198,1886.514
13,3 Jun 2019 15:47:01.321,3 Jun 2019 16:19:40.548,1959.227
14,3 Jun 2019 18:09:25.717,3 Jun 2019 18:41:33.777,1928.060
15,3 Jun 2019 20:30:54.590,3 Jun 2019 21:03:42.559,1967.969
16,3 Jun 2019 22:50:57.456,3 Jun 2019 23:21:33.165,1835.708
17,4 Jun 2019 01:13:09.560,4 Jun 2019 01:31:20.981,1091.421
18,4 Jun 2019 11:40:44.424,4 Jun 2019 12:07:55.117,1630.694
19,4 Jun 2019 13:55:58.046,4 Jun 2019 14:28:09.035,1930.989
20,4 Jun 2019 16:16:14.116,4 Jun 2019 16:48:55.374,1961.258
21,4 Jun 2019 18:38:47.847,4 Jun 2019 19:10:55.730,1927.884
22,4 Jun 2019 20:59:49.348,4 Jun 2019 21:32:30.329,1960.982
23,4 Jun 2019 23:19:51.890,4 Jun 2019 23:48:40.263,1728.373
24,5 Jun 2019 01:45:13.578,5 Jun 2019 01:54:07.832,534.254
25,5 Jun 2019 10:02:13.296,5 Jun 2019 10:12:24.776,611.480
26,5 Jun 2019 12:07:54.454,5 Jun 2019 12:36:51.152,1736.698
27,5 Jun 2019 14:24:24.585,5 Jun 2019 14:56:57.391,1952.806
28,5 Jun 2019 16:45:41.207,5 Jun 2019 17:18:11.871,1950.663
29,5 Jun 2019 19:08:04.320,5 Jun 2019 19:40:36.591,1952.270
30,5 Jun 2019 21:28:40.402,5 Jun 2019 22:00:40.790,1920.388
31,5 Jun 2019 23:48:54.987,6 Jun 2019 00:15:37.076,1602.089
32,6 Jun 2019 10:25:07.966,6 Jun 2019 10:43:52.769,1124.803
33,6 Jun 2019 12:35:31.117,6 Jun 2019 13:05:45.410,1814.293
34,6 Jun 2019 14:53:04.215,6 Jun 2019 15:25:56.240,1972.025
35,6 Jun 2019 17:15:11.078,6 Jun 2019 17:47:33.816,1942.737
36,6 Jun 2019 19:37:12.958,6 Jun 2019 20:09:51.638,1958.680
37,6 Jun 2019 21:57:29.627,6 Jun 2019 22:28:57.713,1888.085
38,7 Jun 2019 00:18:14.216,7 Jun 2019 00:41:52.414,1418.198
39,7 Jun 2019 10:51:01.577,7 Jun 2019 11:13:44.661,1363.083
40,7 Jun 2019 13:03:23.517,7 Jun 2019 13:34:35.251,1871.734
41,7 Jun 2019 15:22:16.187,7 Jun 2019 15:54:59.081,1962.894
42,7 Jun 2019 17:44:38.423,7 Jun 2019 18:16:47.369,1928.946
43,7 Jun 2019 20:06:14.596,7 Jun 2019 20:39:01.217,1966.621
44,7 Jun 2019 22:26:19.275,7 Jun 2019 22:57:14.324,1855.049
45,8 Jun 2019 00:48:05.171,8 Jun 2019 01:07:38.933,1173.761
46,8 Jun 2019 11:16:51.020,8 Jun 2019 11:43:12.813,1581.793
47,8 Jun 2019 13:31:30.594,8 Jun 2019 14:03:30.482,1919.888
48,8 Jun 2019 15:51:27.138,8 Jun 2019 16:24:09.697,1962.559
49,8 Jun 2019 18:14:01.744,8 Jun 2019 18:46:09.986,1928.242
50,8 Jun 2019 20:35:10.642,8 Jun 2019 21:07:56.377,1965.735
51,8 Jun 2019 22:55:12.198,8 Jun 2019 23:24:36.468,1764.269
52,9 Jun 2019 01:19:15.699,9 Jun 2019 01:31:31.139,735.440
53,9 Jun 2019 09:43:02.807,9 Jun 2019 09:43:23.744,20.938
54,9 Jun 2019 09:44:11.347,9 Jun 2019 09:45:50.318,98.970
55,9 Jun 2019 11:43:39.224,9 Jun 2019 12:12:12.483,1713.259
56,9 Jun 2019 13:59:51.666,9 Jun 2019 14:32:17.441,1945.775
57,9 Jun 2019 16:20:53.290,9 Jun 2019 16:53:24.673,1951.383
58,9 Jun 2019 18:43:19.910,9 Jun 2019 19:15:49.036,1949.126
59,9 Jun 2019 21:04:02.532,9 Jun 2019 21:36:14.002,1931.470
60,9 Jun 2019 23:24:12.377,9 Jun 2019 23:51:32.762,1640.386
61,10 Jun 2019 10:01:44.451,10 Jun 2019 10:18:48.437,1023.986
62,10 Jun 2019 12:11:13.654,10 Jun 2019 12:41:06.822,1793.168
63,10 Jun 2019 14:28:27.233,10 Jun 2019 15:01:13.877,1966.645
64,10 Jun 2019 16:50:22.211,10 Jun 2019 17:22:47.301,1945.089
65,10 Jun 2019 19:12:30.836,10 Jun 2019 19:45:07.957,1957.121
66,10 Jun 2019 21:32:52.049,10 Jun 2019 22:04:26.528,1894.479
67,10 Jun 2019 23:53:26.184,11 Jun 2019 00:18:00.223,1474.039
68,11 Jun 2019 10:27:08.924,11 Jun 2019 10:48:55.650,1306.725
69,11 Jun 2019 12:39:01.217,11 Jun 2019 13:09:57.606,1856.389
70,11 Jun 2019 14:57:36.905,11 Jun 2019 15:30:17.652,1960.746
71,11 Jun 2019 17:19:50.828,11 Jun 2019 17:52:05.947,1935.120
72,11 Jun 2019 19:41:34.193,11 Jun 2019 20:14:18.774,1964.581
73,11 Jun 2019 22:01:41.331,11 Jun 2019 22:32:48.096,1866.765
74,12 Jun 2019 00:23:06.014,12 Jun 2019 00:44:06.192,1260.178
75,12 Jun 2019 10:53:02.716,12 Jun 2019 11:18:22.990,1520.274
76,12 Jun 2019 13:07:06.332,12 Jun 2019 13:38:51.073,1904.741
77,12 Jun 2019 15:26:44.852,12 Jun 2019 15:59:28.265,1963.413
78,12 Jun 2019 17:49:15.244,12 Jun 2019 18:21:22.182,1926.937
79,12 Jun 2019 20:10:31.629,12 Jun 2019 20:43:19.129,1967.501
80,12 Jun 2019 22:30:33.032,12 Jun 2019 23:00:26.785,1793.753
81,13 Jun 2019 00:53:45.379,13 Jun 2019 01:08:38.021,892.642
82,13 Jun 2019 11:19:27.420,13 Jun 2019 11:47:33.543,1686.123
83,13 Jun 2019 13:35:15.563,13 Jun 2019 14:07:42.109,1946.546
84,13 Jun 2019 15:56:04.788,13 Jun 2019 16:28:39.402,1954.614
85,13 Jun 2019 18:18:35.017,13 Jun 2019 18:50:57.537,1942.520
86,13 Jun 2019 20:39:24.484,13 Jun 2019 21:11:47.118,1942.634
87,13 Jun 2019 22:59:30.743,13 Jun 2019 23:27:26.753,1676.010
88,14 Jun 2019 09:38:37.580,14 Jun 2019 09:53:34.180,896.600
89,14 Jun 2019 11:46:57.904,14 Jun 2019 12:16:27.712,1769.808
90,14 Jun 2019 14:03:51.226,14 Jun 2019 14:36:33.828,1962.602
91,14 Jun 2019 16:25:33.506,14 Jun 2019 16:58:00.318,1946.812
92,14 Jun 2019 18:47:48.206,14 Jun 2019 19:20:23.505,1955.299
93,14 Jun 2019 21:08:14.451,14 Jun 2019 21:39:58.598,1904.148
94,14 Jun 2019 23:28:39.986,14 Jun 2019 23:54:05.059,1525.073
95,15 Jun 2019 10:03:15.127,15 Jun 2019 10:24:04.647,1249.521
96,15 Jun 2019 12:14:35.134,15 Jun 2019 12:45:20.013,1844.879
97,15 Jun 2019 14:32:51.601,15 Jun 2019 15:05:36.655,1965.053
98,15 Jun 2019 16:55:02.923,15 Jun 2019 17:27:20.226,1937.303
99,15 Jun 2019 19:16:53.344,15 Jun 2019 19:49:35.364,1962.021
100,15 Jun 2019 21:37:03.560,15 Jun 2019 22:08:19.413,1875.853
101,15 Jun 2019 23:58:10.845,16 Jun 2019 00:20:14.388,1323.543
102,16 Jun 2019 10:29:18.873,16 Jun 2019 10:53:36.857,1457.985
103,16 Jun 2019 12:42:38.905,16 Jun 2019 13:14:11.567,1892.662
104,16 Jun 2019 15:02:00.641,16 Jun 2019 15:34:40.983,1960.342
105,16 Jun 2019 17:24:28.392,16 Jun 2019 17:56:38.309,1929.918
106,16 Jun 2019 19:45:52.273,16 Jun 2019 20:18:40.562,1968.289
107,16 Jun 2019 22:05:54.298,16 Jun 2019 22:36:12.793,1818.495
108,17 Jun 2019 00:28:27.981,17 Jun 2019 00:45:32.039,1024.057
109,17 Jun 2019 10:55:15.694,17 Jun 2019 11:22:54.090,1658.396
110,17 Jun 2019 13:10:47.559,17 Jun 2019 13:43:06.097,1938.538
111,17 Jun 2019 15:31:17.050,17 Jun 2019 16:03:56.961,1959.911
112,17 Jun 2019 17:53:49.661,17 Jun 2019 18:26:03.706,1934.045
113,17 Jun 2019 20:14:46.220,17 Jun 2019 20:47:20.812,1954.592
114,17 Jun 2019 22:34:49.938,17 Jun 2019 23:03:16.881,1706.943
115,18 Jun 2019 01:01:52.189,18 Jun 2019 01:06:55.826,303.636
116,18 Jun 2019 09:15:47.811,18 Jun 2019 09:28:05.495,737.684
117,18 Jun 2019 11:22:39.070,18 Jun 2019 11:51:48.040,1748.971
118,18 Jun 2019 13:39:15.791,18 Jun 2019 14:11:55.151,1959.359
119,18 Jun 2019 16:00:44.905,18 Jun 2019 16:33:13.792,1948.887
120,18 Jun 2019 18:23:04.947,18 Jun 2019 18:55:38.361,1953.414
121,18 Jun 2019 20:43:36.785,18 Jun 2019 21:15:31.315,1914.530
122,18 Jun 2019 23:03:55.316,18 Jun 2019 23:30:04.419,1569.103
123,19 Jun 2019 09:39:23.068,19 Jun 2019 09:59:05.983,1182.916
124,19 Jun 2019 11:50:14.195,19 Jun 2019 12:20:42.110,1827.916
125,19 Jun 2019 14:08:05.098,19 Jun 2019 14:40:56.010,1970.912
126,19 Jun 2019 16:30:14.804,19 Jun 2019 17:02:36.575,1941.771
127,19 Jun 2019 18:52:12.029,19 Jun 2019 19:24:52.011,1959.982
128,19 Jun 2019 21:12:25.910,19 Jun 2019 21:43:49.721,1883.811
129,19 Jun 2019 23:33:18.820,19 Jun 2019 23:56:21.940,1383.121
130,20 Jun 2019 10:05:26.810,20 Jun 2019 10:28:49.383,1402.573
131,20 Jun 2019 12:18:10.253,20 Jun 2019 12:49:32.409,1882.156
132,20 Jun 2019 14:37:17.329,20 Jun 2019 15:09:58.549,1961.220
133,20 Jun 2019 16:59:41.335,20 Jun 2019 17:31:47.892,1926.557
134,20 Jun 2019 19:21:12.547,20 Jun 2019 19:54:00.168,1967.621
135,20 Jun 2019 21:41:15.918,20 Jun 2019 22:11:59.297,1843.379
136,21 Jun 2019 00:03:18.986,21 Jun 2019 00:22:00.440,1121.454
137,21 Jun 2019 10:31:16.650,21 Jun 2019 10:58:12.394,1615.744
138,21 Jun 2019 12:46:19.861,21 Jun 2019 13:18:27.385,1927.524
139,21 Jun 2019 15:06:29.737,21 Jun 2019 15:39:10.801,1961.064
140,21 Jun 2019 17:29:03.848,21 Jun 2019 18:01:09.259,1925.411
141,21 Jun 2019 19:50:07.705,21 Jun 2019 20:22:50.985,1963.280
142,21 Jun 2019 22:10:09.834,21 Jun 2019 22:39:09.120,1739.286
143,22 Jun 2019 00:35:01.790,22 Jun 2019 00:45:10.459,608.670
144,22 Jun 2019 08:53:17.034,22 Jun 2019 09:02:14.838,537.804
145,22 Jun 2019 10:58:19.233,22 Jun 2019 11:27:09.519,1730.287
146,22 Jun 2019 13:14:46.663,22 Jun 2019 13:47:15.274,1948.612
147,22 Jun 2019 15:35:56.429,22 Jun 2019 16:08:27.699,1951.270
148,22 Jun 2019 17:58:20.873,22 Jun 2019 18:30:52.355,1951.482
149,22 Jun 2019 20:18:59.012,22 Jun 2019 20:51:03.234,1924.222
150,22 Jun 2019 22:39:11.943,22 Jun 2019 23:06:07.645,1615.703
151,23 Jun 2019 09:15:49.264,23 Jun 2019 09:34:02.137,1092.874
152,23 Jun 2019 11:25:55.906,23 Jun 2019 11:56:03.829,1807.923
153,23 Jun 2019 13:43:22.980,23 Jun 2019 14:16:13.000,1970.020
154,23 Jun 2019 16:05:26.155,23 Jun 2019 16:37:49.799,1943.644
155,23 Jun 2019 18:27:30.241,23 Jun 2019 19:00:08.460,1958.220
156,23 Jun 2019 20:47:48.313,23 Jun 2019 21:19:17.704,1889.391
157,23 Jun 2019 23:08:29.330,23 Jun 2019 23:32:23.595,1434.265
158,24 Jun 2019 09:41:35.539,24 Jun 2019 10:03:59.490,1343.951
159,24 Jun 2019 11:53:47.020,24 Jun 2019 12:24:53.738,1866.718
160,24 Jun 2019 14:12:34.854,24 Jun 2019 14:45:16.248,1961.394
161,24 Jun 2019 16:34:53.940,24 Jun 2019 17:07:04.693,1930.753
162,24 Jun 2019 18:56:32.424,24 Jun 2019 19:29:18.456,1966.031
163,24 Jun 2019 21:16:37.821,24 Jun 2019 21:47:36.885,1859.064
164,24 Jun 2019 23:38:16.444,24 Jun 2019 23:58:14.097,1197.654
165,25 Jun 2019 10:07:25.464,25 Jun 2019 10:33:28.668,1563.204
166,25 Jun 2019 12:21:53.204,25 Jun 2019 12:53:48.878,1915.674
167,25 Jun 2019 14:41:44.290,25 Jun 2019 15:14:27.340,1963.051
168,25 Jun 2019 17:04:17.617,25 Jun 2019 17:36:27.557,1929.940
169,25 Jun 2019 19:25:28.905,25 Jun 2019 19:58:15.288,1966.383
170,25 Jun 2019 21:45:30.322,25 Jun 2019 22:15:05.093,1774.770
171,26 Jun 2019 00:09:15.441,26 Jun 2019 00:22:16.699,781.258
172,26 Jun 2019 10:34:07.160,26 Jun 2019 11:02:30.768,1703.607
173,26 Jun 2019 12:50:08.772,26 Jun 2019 13:22:36.796,1948.024
174,26 Jun 2019 15:11:09.408,26 Jun 2019 15:43:40.086,1950.678
175,26 Jun 2019 17:33:36.312,26 Jun 2019 18:06:02.804,1946.491
176,26 Jun 2019 19:54:21.090,26 Jun 2019 20:26:35.357,1934.268
177,26 Jun 2019 22:14:29.664,26 Jun 2019 22:42:01.488,1651.824
178,27 Jun 2019 08:52:30.233,27 Jun 2019 09:09:00.929,990.696
179,27 Jun 2019 11:01:39.945,27 Jun 2019 11:31:25.081,1785.135
180,27 Jun 2019 13:18:46.504,27 Jun 2019 13:51:31.656,1965.152
181,27 Jun 2019 15:40:37.303,27 Jun 2019 16:13:02.938,1945.635
182,27 Jun 2019 18:02:47.959,27 Jun 2019 18:35:24.523,1956.564
183,27 Jun 2019 20:23:10.733,27 Jun 2019 20:54:48.860,1898.126
184,27 Jun 2019 22:43:41.924,27 Jun 2019 23:08:34.750,1492.826
185,28 Jun 2019 09:17:43.014,28 Jun 2019 09:39:11.103,1288.090
186,28 Jun 2019 11:29:24.048,28 Jun 2019 12:00:16.320,1852.271
187,28 Jun 2019 13:47:53.298,28 Jun 2019 14:20:35.258,1961.960
188,28 Jun 2019 16:10:06.258,28 Jun 2019 16:42:21.349,1935.091
189,28 Jun 2019 18:31:51.877,28 Jun 2019 19:04:35.695,1963.818
190,28 Jun 2019 20:51:59.939,28 Jun 2019 21:23:09.986,1870.047
191,28 Jun 2019 23:13:18.676,28 Jun 2019 23:34:40.380,1281.704
192,29 Jun 2019 09:43:38.010,29 Jun 2019 10:08:37.876,1499.866
193,29 Jun 2019 11:57:29.345,29 Jun 2019 12:29:09.099,1899.755
194,29 Jun 2019 14:16:59.897,29 Jun 2019 14:49:45.051,1965.154
195,29 Jun 2019 16:39:31.001,29 Jun 2019 17:11:38.144,1927.143
196,29 Jun 2019 19:00:49.785,29 Jun 2019 19:33:37.695,1967.910
197,29 Jun 2019 21:20:51.304,29 Jun 2019 21:50:52.141,1800.837
198,29 Jun 2019 23:43:50.404,29 Jun 2019 23:59:37.429,947.025
199,30 Jun 2019 10:09:54.358,30 Jun 2019 10:37:51.726,1677.368
200,30 Jun 2019 12:25:37.012,30 Jun 2019 12:58:01.536,1944.524
201,30 Jun 2019 14:46:20.180,30 Jun 2019 15:18:56.538,1956.358
202,30 Jun 2019 17:08:51.264,30 Jun 2019 17:41:12.050,1940.785
203,30 Jun 2019 19:29:42.976,30 Jun 2019 20:02:09.669,1946.693
204,30 Jun 2019 21:49:48.310,30 Jun 2019 22:17:54.170,1685.859
205,1 Jul 2019 08:29:29.360,1 Jul 2019 08:43:40.219,850.860
206,1 Jul 2019 10:37:23.329,1 Jul 2019 11:06:45.778,1762.450
207,1 Jul 2019 12:54:10.640,1 Jul 2019 13:26:52.133,1961.493
208,1 Jul 2019 15:15:48.654,1 Jul 2019 15:48:16.062,1947.408
209,1 Jul 2019 17:38:05.163,1 Jul 2019 18:10:39.840,1954.677
210,1 Jul 2019 19:58:33.118,1 Jul 2019 20:30:20.528,1907.410
211,1 Jul 2019 22:18:56.245,1 Jul 2019 22:44:35.590,1539.345
212,2 Jul 2019 08:53:47.488,2 Jul 2019 09:14:17.113,1229.625
213,2 Jul 2019 11:04:58.724,2 Jul 2019 11:35:38.635,1839.911
214,2 Jul 2019 13:23:07.563,2 Jul 2019 13:55:54.312,1966.748
215,2 Jul 2019 15:45:18.212,2 Jul 2019 16:17:37.555,1939.343
216,2 Jul 2019 18:07:10.883,2 Jul 2019 18:39:52.151,1961.269
217,2 Jul 2019 20:27:22.211,2 Jul 2019 20:58:40.610,1878.399
218,2 Jul 2019 22:48:24.591,2 Jul 2019 23:10:47.800,1343.208
219,3 Jul 2019 09:19:51.255,3 Jul 2019 09:43:53.095,1441.840
220,3 Jul 2019 11:33:00.143,3 Jul 2019 12:04:29.711,1889.568
221,3 Jul 2019 13:52:18.451,3 Jul 2019 14:24:56.306,1957.855
222,3 Jul 2019 16:14:44.082,3 Jul 2019 16:46:53.906,1929.824
223,3 Jul 2019 18:36:10.319,3 Jul 2019 19:08:58.591,1968.272
224,3 Jul 2019 20:56:12.691,3 Jul 2019 21:26:39.374,1826.683
225,3 Jul 2019 23:18:35.758,3 Jul 2019 23:36:12.116,1056.358
226,4 Jul 2019 09:45:44.734,4 Jul 2019 10:13:11.555,1646.820
227,4 Jul 2019 12:01:09.532,4 Jul 2019 12:33:24.390,1934.859
228,4 Jul 2019 14:21:32.571,4 Jul 2019 14:54:14.085,1961.514
229,4 Jul 2019 16:44:05.757,4 Jul 2019 17:16:16.035,1930.278
230,4 Jul 2019 19:05:04.636,4 Jul 2019 19:37:42.479,1957.843
231,4 Jul 2019 21:25:07.743,4 Jul 2019 21:53:44.532,1716.790
232,4 Jul 2019 23:51:12.695,4 Jul 2019 23:58:27.711,435.017
233,5 Jul 2019 08:06:43.260,5 Jul 2019 08:18:01.665,678.405
234,5 Jul 2019 10:13:02.550,5 Jul 2019 10:42:06.448,1743.898
235,5 Jul 2019 12:29:35.154,5 Jul 2019 13:02:13.292,1958.138
236,5 Jul 2019 14:51:00.082,5 Jul 2019 15:23:29.782,1949.700
237,5 Jul 2019 17:13:21.612,5 Jul 2019 17:45:54.489,1952.877
238,5 Jul 2019 19:33:55.423,5 Jul 2019 20:05:52.360,1916.936
239,5 Jul 2019 21:54:12.013,5 Jul 2019 22:20:37.131,1585.118
240,6 Jul 2019 08:29:59.213,6 Jul 2019 08:49:16.517,1157.304
241,6 Jul 2019 10:40:39.515,6 Jul 2019 11:11:00.621,1821.105
242,6 Jul 2019 12:58:20.782,6 Jul 2019 13:31:13.437,1972.654
243,6 Jul 2019 15:20:30.034,6 Jul 2019 15:52:52.820,1942.786
244,6 Jul 2019 17:42:29.422,6 Jul 2019 18:15:08.769,1959.346
245,6 Jul 2019 20:02:44.583,6 Jul 2019 20:34:10.654,1886.071
246,6 Jul 2019 22:23:33.435,6 Jul 2019 22:46:53.423,1399.988
247,7 Jul 2019 08:55:59.491,7 Jul 2019 09:19:03.952,1384.461
248,7 Jul 2019 11:08:33.503,7 Jul 2019 11:39:50.657,1877.154
249,7 Jul 2019 13:27:32.941,7 Jul 2019 14:00:15.863,1962.922
250,7 Jul 2019 15:49:56.910,7 Jul 2019 16:22:04.768,1927.858
251,7 Jul 2019 18:11:30.466,7 Jul 2019 18:44:17.661,1967.195
252,7 Jul 2019 20:31:34.411,7 Jul 2019 21:02:24.205,1849.794
253,7 Jul 2019 22:53:29.067,7 Jul 2019 23:12:38.537,1149.470
254,8 Jul 2019 09:21:49.455,8 Jul 2019 09:48:29.581,1600.126
255,8 Jul 2019 11:36:41.791,8 Jul 2019 12:08:45.760,1923.968
256,8 Jul 2019 13:56:45.411,8 Jul 2019 14:29:27.173,1961.762
257,8 Jul 2019 16:19:19.815,8 Jul 2019 16:51:25.979,1926.164
258,8 Jul 2019 18:40:26.035,8 Jul 2019 19:13:10.943,1964.908
259,8 Jul 2019 21:00:27.841,8 Jul 2019 21:29:39.901,1752.060
260,8 Jul 2019 23:24:55.022,8 Jul 2019 23:35:59.562,664.541
261,9 Jul 2019 07:44:31.721,9 Jul 2019 07:51:59.371,447.650
262,9 Jul 2019 09:48:44.480,9 Jul 2019 10:17:27.858,1723.378
263,9 Jul 2019 12:05:07.292,9 Jul 2019 12:37:33.202,1945.910
264,9 Jul 2019 14:26:11.725,9 Jul 2019 14:58:43.270,1951.545
265,9 Jul 2019 16:48:37.382,9 Jul 2019 17:21:07.759,1950.378
266,9 Jul 2019 19:09:17.608,9 Jul 2019 19:41:25.454,1927.846
267,9 Jul 2019 21:29:29.011,9 Jul 2019 21:56:37.740,1628.728
268,10 Jul 2019 08:06:31.414,10 Jul 2019 08:24:08.954,1057.540
269,10 Jul 2019 10:16:20.498,10 Jul 2019 10:46:22.199,1801.701
270,10 Jul 2019 12:33:41.848,10 Jul 2019 13:06:29.892,1968.045
271,10 Jul 2019 14:55:41.227,10 Jul 2019 15:28:05.709,1944.482
272,10 Jul 2019 17:17:47.478,10 Jul 2019 17:50:25.198,1957.720
273,10 Jul 2019 19:38:07.000,10 Jul 2019 20:09:37.865,1890.865
274,10 Jul 2019 21:58:44.658,10 Jul 2019 22:22:57.421,1452.763
275,11 Jul 2019 08:32:07.871,11 Jul 2019 08:54:14.074,1326.203
276,11 Jul 2019 10:44:10.974,11 Jul 2019 11:15:12.504,1861.530
277,11 Jul 2019 13:02:53.290,11 Jul 2019 13:35:33.814,1960.524
278,11 Jul 2019 15:25:09.417,11 Jul 2019 15:57:23.081,1933.664
279,11 Jul 2019 17:46:50.210,11 Jul 2019 18:19:35.590,1965.380
280,11 Jul 2019 20:06:56.389,11 Jul 2019 20:37:59.233,1862.844
281,11 Jul 2019 22:28:28.201,11 Jul 2019 22:49:01.209,1233.008
282,12 Jul 2019 08:57:59.928,12 Jul 2019 09:23:43.126,1543.198
283,12 Jul 2019 11:12:16.436,12 Jul 2019 11:44:06.810,1910.374
284,12 Jul 2019 13:32:02.917,12 Jul 2019 14:04:45.032,1962.115
285,12 Jul 2019 15:54:33.457,12 Jul 2019 16:26:41.750,1928.293
286,12 Jul 2019 18:15:47.135,12 Jul 2019 18:48:34.088,1966.952
287,12 Jul 2019 20:35:48.497,12 Jul 2019 21:05:33.435,1784.938
288,12 Jul 2019 22:59:17.252,12 Jul 2019 23:13:07.674,830.422
289,13 Jul 2019 09:24:34.132,13 Jul 2019 09:52:49.022,1694.891
290,13 Jul 2019 11:40:27.698,13 Jul 2019 12:12:56.227,1948.529
291,13 Jul 2019 14:01:23.710,13 Jul 2019 14:33:56.604,1952.894
292,13 Jul 2019 16:23:52.659,13 Jul 2019 16:56:16.450,1943.791
293,13 Jul 2019 18:44:39.628,13 Jul 2019 19:16:57.631,1938.003
294,13 Jul 2019 21:04:47.045,13 Jul 2019 21:32:30.291,1663.246
295,14 Jul 2019 07:43:17.819,14 Jul 2019 07:59:08.190,950.371
296,14 Jul 2019 09:52:05.031,14 Jul 2019 10:21:43.285,1778.254
297,14 Jul 2019 12:09:05.671,14 Jul 2019 12:41:49.485,1963.814
298,14 Jul 2019 14:30:52.443,14 Jul 2019 15:03:18.607,1946.163
299,14 Jul 2019 16:53:05.039,14 Jul 2019 17:25:41.012,1955.973
300,14 Jul 2019 19:13:29.414,14 Jul 2019 19:45:10.593,1901.179
301,14 Jul 2019 21:33:57.839,14 Jul 2019 21:59:06.243,1508.404
302,15 Jul 2019 08:08:15.264,15 Jul 2019 08:29:26.148,1270.885
303,15 Jul 2019 10:19:45.701,15 Jul 2019 10:50:35.007,1849.306
304,15 Jul 2019 12:38:09.409,15 Jul 2019 13:10:52.816,1963.407
305,15 Jul 2019 15:00:21.655,15 Jul 2019 15:32:35.463,1933.807
306,15 Jul 2019 17:22:09.522,15 Jul 2019 17:54:52.525,1963.003
307,15 Jul 2019 19:42:18.563,15 Jul 2019 20:13:31.526,1872.963
308,15 Jul 2019 22:03:31.711,15 Jul 2019 22:25:13.255,1301.544
309,16 Jul 2019 08:34:15.066,16 Jul 2019 08:58:54.404,1479.339
310,16 Jul 2019 10:47:51.064,16 Jul 2019 11:19:27.166,1896.102
311,16 Jul 2019 13:07:16.254,16 Jul 2019 13:40:00.891,1964.637
312,16 Jul 2019 15:29:46.719,16 Jul 2019 16:01:55.032,1928.313
313,16 Jul 2019 17:51:07.906,16 Jul 2019 18:23:55.992,1968.086
314,16 Jul 2019 20:11:09.617,16 Jul 2019 20:41:18.250,1808.633
315,16 Jul 2019 22:33:56.271,16 Jul 2019 22:50:21.820,985.548
316,17 Jul 2019 09:00:21.053,17 Jul 2019 09:28:09.872,1668.819
317,17 Jul 2019 11:15:58.567,17 Jul 2019 11:48:20.961,1942.394
318,17 Jul 2019 13:36:35.613,17 Jul 2019 14:09:13.717,1958.104
319,17 Jul 2019 15:59:07.463,17 Jul 2019 16:31:25.368,1937.905
320,17 Jul 2019 18:20:01.446,17 Jul 2019 18:52:31.993,1950.547
321,17 Jul 2019 20:40:05.958,17 Jul 2019 21:08:21.099,1695.142
322,18 Jul 2019 07:20:22.994,18 Jul 2019 07:33:47.737,804.744
323,18 Jul 2019 09:27:48.028,18 Jul 2019 09:57:03.785,1755.757
324,18 Jul 2019 11:44:30.098,18 Jul 2019 12:17:10.467,1960.368
325,18 Jul 2019 14:06:03.815,18 Jul 2019 14:38:31.849,1948.034
326,18 Jul 2019 16:28:22.020,18 Jul 2019 17:00:56.111,1954.091
327,18 Jul 2019 18:48:51.779,18 Jul 2019 19:20:42.743,1910.964
328,18 Jul 2019 21:09:12.649,18 Jul 2019 21:35:05.465,1552.816
329,19 Jul 2019 07:44:20.503,19 Jul 2019 08:04:29.152,1208.649
330,19 Jul 2019 09:55:21.403,19 Jul 2019 10:25:57.226,1835.823
331,19 Jul 2019 12:13:23.282,19 Jul 2019 12:46:12.015,1968.733
332,19 Jul 2019 14:35:33.516,19 Jul 2019 15:07:53.574,1940.058
333,19 Jul 2019 16:57:28.381,19 Jul 2019 17:30:09.045,1960.664
334,19 Jul 2019 19:17:40.878,19 Jul 2019 19:49:01.870,1880.992
335,19 Jul 2019 21:38:38.636,19 Jul 2019 22:01:20.957,1362.321
336,20 Jul 2019 08:10:24.899,20 Jul 2019 08:34:08.683,1423.784
337,20 Jul 2019 10:23:21.015,20 Jul 2019 10:54:47.894,1886.880
338,20 Jul 2019 12:42:35.259,20 Jul 2019 13:15:14.273,1959.014
339,20 Jul 2019 15:04:59.738,20 Jul 2019 15:37:08.120,1928.382
340,20 Jul 2019 17:26:28.319,20 Jul 2019 17:59:16.324,1968.005
341,20 Jul 2019 19:46:31.120,20 Jul 2019 20:17:05.819,1834.699
342,20 Jul 2019 22:08:44.362,20 Jul 2019 22:26:52.090,1087.728
343,21 Jul 2019 08:36:16.426,21 Jul 2019 09:03:28.935,1632.509
344,21 Jul 2019 10:51:31.305,21 Jul 2019 11:23:42.718,1931.413
345,21 Jul 2019 13:11:48.140,21 Jul 2019 13:44:29.425,1961.285
346,21 Jul 2019 15:34:21.819,21 Jul 2019 16:06:29.954,1928.134
347,21 Jul 2019 17:55:23.027,21 Jul 2019 18:28:03.698,1960.671
348,21 Jul 2019 20:15:25.617,21 Jul 2019 20:44:12.665,1727.048
349,21 Jul 2019 22:40:51.379,21 Jul 2019 22:49:38.507,527.128
350,22 Jul 2019 06:57:41.721,22 Jul 2019 07:08:01.108,619.387
351,22 Jul 2019 09:03:27.325,22 Jul 2019 09:32:24.833,1737.508
352,22 Jul 2019 11:19:57.757,22 Jul 2019 11:52:31.131,1953.374
353,22 Jul 2019 13:41:15.280,22 Jul 2019 14:13:45.829,1950.549
354,22 Jul 2019 16:03:38.225,22 Jul 2019 16:36:10.557,1952.332
355,22 Jul 2019 18:24:14.051,22 Jul 2019 18:56:14.064,1920.014
356,22 Jul 2019 20:44:28.837,22 Jul 2019 21:11:09.223,1600.386
357,23 Jul 2019 07:20:38.870,23 Jul 2019 07:39:27.400,1128.530
358,23 Jul 2019 09:31:04.030,23 Jul 2019 10:01:19.090,1815.060
359,23 Jul 2019 11:48:37.991,23 Jul 2019 12:21:30.117,1972.125
360,23 Jul 2019 14:10:45.168,23 Jul 2019 14:43:07.894,1942.726
361,23 Jul 2019 16:32:46.772,23 Jul 2019 17:05:25.517,1958.744
362,23 Jul 2019 18:53:03.266,23 Jul 2019 19:24:31.178,1887.912
363,23 Jul 2019 21:13:48.296,23 Jul 2019 21:37:24.521,1416.225
364,24 Jul 2019 07:46:33.217,24 Jul 2019 08:09:18.782,1365.565
365,24 Jul 2019 09:58:56.606,24 Jul 2019 10:30:08.939,1872.333
366,24 Jul 2019 12:17:49.893,24 Jul 2019 12:50:32.916,1963.023
367,24 Jul 2019 14:40:12.458,24 Jul 2019 15:12:21.285,1928.827
368,24 Jul 2019 17:01:48.343,24 Jul 2019 17:34:35.029,1966.687
369,24 Jul 2019 19:21:52.930,24 Jul 2019 19:52:47.472,1854.541
370,24 Jul 2019 21:43:39.739,24 Jul 2019 22:03:10.834,1171.095
371,25 Jul 2019 08:12:22.750,25 Jul 2019 08:38:46.669,1583.919
372,25 Jul 2019 10:27:03.779,25 Jul 2019 10:59:04.158,1920.378
373,25 Jul 2019 12:47:01.139,25 Jul 2019 13:19:43.608,1962.469
374,25 Jul 2019 15:09:35.733,25 Jul 2019 15:41:43.731,1927.998
375,25 Jul 2019 17:30:44.334,25 Jul 2019 18:03:29.983,1965.649
376,25 Jul 2019 19:50:45.905,25 Jul 2019 20:20:08.887,1762.982
377,25 Jul 2019 22:14:51.801,25 Jul 2019 22:27:00.516,728.716
378,26 Jul 2019 06:38:28.126,26 Jul 2019 06:39:03.494,35.368
379,26 Jul 2019 06:39:27.749,26 Jul 2019 06:41:29.503,121.754
380,26 Jul 2019 08:39:11.689,26 Jul 2019 09:07:46.174,1714.485
381,26 Jul 2019 10:55:25.446,26 Jul 2019 11:27:51.166,1945.719
382,26 Jul 2019 13:16:27.250,26 Jul 2019 13:48:58.717,1951.467
383,26 Jul 2019 15:38:53.834,26 Jul 2019 16:11:23.211,1949.377
384,26 Jul 2019 17:59:36.187,26 Jul 2019 18:31:47.274,1931.087
385,26 Jul 2019 20:19:46.187,26 Jul 2019 20:47:05.243,1639.056
386,27 Jul 2019 06:57:15.014,27 Jul 2019 07:14:22.715,1027.701
387,27 Jul 2019 09:06:46.334,27 Jul 2019 09:36:40.521,1794.187
388,27 Jul 2019 11:24:00.830,27 Jul 2019 11:56:47.630,1966.801
389,27 Jul 2019 13:45:56.301,27 Jul 2019 14:18:21.315,1945.014
390,27 Jul 2019 16:08:04.669,27 Jul 2019 16:40:41.853,1957.184
391,27 Jul 2019 18:28:25.688,27 Jul 2019 18:59:59.699,1894.011
392,27 Jul 2019 20:49:00.187,27 Jul 2019 21:13:31.939,1471.752
393,28 Jul 2019 07:22:40.740,28 Jul 2019 07:44:29.687,1308.948
394,28 Jul 2019 09:34:34.287,28 Jul 2019 10:05:31.248,1856.961
395,28 Jul 2019 11:53:10.748,28 Jul 2019 12:25:51.419,1960.672
396,28 Jul 2019 14:15:24.872,28 Jul 2019 14:47:39.860,1934.988
397,28 Jul 2019 16:37:07.956,28 Jul 2019 17:09:52.624,1964.668
398,28 Jul 2019 18:57:14.978,28 Jul 2019 19:28:21.333,1866.355
399,28 Jul 2019 21:18:40.404,28 Jul 2019 21:39:38.088,1257.684
400,29 Jul 2019 07:48:34.375,29 Jul 2019 08:13:57.245,1522.870
401,29 Jul 2019 10:02:39.431,29 Jul 2019 10:34:24.792,1905.361
402,29 Jul 2019 12:22:18.881,29 Jul 2019 12:55:02.144,1963.264
403,29 Jul 2019 14:44:49.248,29 Jul 2019 15:16:56.314,1927.066
404,29 Jul 2019 17:06:05.333,29 Jul 2019 17:38:52.777,1967.444
405,29 Jul 2019 19:26:06.719,29 Jul 2019 19:55:59.627,1792.908
406,29 Jul 2019 21:49:20.755,29 Jul 2019 22:04:06.350,885.595
407,30 Jul 2019 08:15:00.184,30 Jul 2019 08:43:07.246,1687.061
408,30 Jul 2019 10:30:48.785,30 Jul 2019 11:03:15.664,1946.879
409,30 Jul 2019 12:51:38.839,30 Jul 2019 13:24:13.259,1954.419
410,30 Jul 2019 15:14:08.964,30 Jul 2019 15:46:31.541,1942.577
411,30 Jul 2019 17:34:58.146,30 Jul 2019 18:07:20.272,1942.126
412,30 Jul 2019 19:55:04.517,30 Jul 2019 20:22:59.197,1674.679
413,31 Jul 2019 06:34:07.281,31 Jul 2019 06:49:09.423,902.142
414,31 Jul 2019 08:42:30.681,31 Jul 2019 09:12:01.432,1770.751
415,31 Jul 2019 10:59:24.785,31 Jul 2019 11:32:07.516,1962.732
416,31 Jul 2019 13:21:07.587,31 Jul 2019 13:53:34.319,1946.732
417,31 Jul 2019 15:43:22.059,31 Jul 2019 16:15:57.429,1955.370
418,31 Jul 2019 18:03:48.091,31 Jul 2019 18:35:31.835,1903.745
419,31 Jul 2019 20:24:13.922,31 Jul 2019 20:49:37.183,1523.261
420,1 Aug 2019 06:58:47.116,1 Aug 2019 07:19:39.051,1251.935
421,1 Aug 2019 09:10:08.269,1 Aug 2019 09:40:53.667,1845.399
422,1 Aug 2019 11:28:25.564,1 Aug 2019 12:01:10.423,1964.858
423,1 Aug 2019 13:50:36.987,1 Aug 2019 14:22:53.901,1936.914
424,1 Aug 2019 16:12:27.125,1 Aug 2019 16:45:09.252,1962.126
425,1 Aug 2019 18:32:37.202,1 Aug 2019 19:03:52.752,1875.550
426,1 Aug 2019 20:53:45.096,1 Aug 2019 21:15:46.215,1321.119
427,2 Aug 2019 07:24:50.684,2 Aug 2019 07:49:10.803,1460.118
428,2 Aug 2019 09:38:12.236,2 Aug 2019 10:09:45.273,1893.037
429,2 Aug 2019 11:57:34.277,2 Aug 2019 12:30:15.149,1960.872
430,2 Aug 2019 14:20:02.405,2 Aug 2019 14:52:12.144,1929.739
431,2 Aug 2019 16:41:25.993,2 Aug 2019 17:14:14.251,1968.258
432,2 Aug 2019 19:01:27.971,2 Aug 2019 19:31:45.349,1817.377
433,2 Aug 2019 21:24:02.997,2 Aug 2019 21:41:02.981,1019.984
434,3 Aug 2019 07:50:48.256,3 Aug 2019 08:18:27.887,1659.631
435,3 Aug 2019 10:06:20.777,3 Aug 2019 10:38:39.788,1939.011
436,3 Aug 2019 12:26:51.088,3 Aug 2019 12:59:30.799,1959.711
437,3 Aug 2019 14:49:23.619,3 Aug 2019 15:21:38.149,1934.530
438,3 Aug 2019 17:10:19.894,3 Aug 2019 17:42:54.059,1954.165
439,3 Aug 2019 19:30:23.684,3 Aug 2019 19:58:49.410,1705.726
440,3 Aug 2019 21:57:35.330,3 Aug 2019 22:02:09.422,274.092
441,4 Aug 2019 06:11:16.975,4 Aug 2019 06:23:42.562,745.588
442,4 Aug 2019 08:18:12.194,4 Aug 2019 08:47:21.724,1749.529
443,4 Aug 2019 10:34:49.383,4 Aug 2019 11:07:28.831,1959.448
444,4 Aug 2019 12:56:18.984,4 Aug 2019 13:28:47.766,1948.781
445,4 Aug 2019 15:18:38.832,4 Aug 2019 15:51:12.312,1953.481
446,4 Aug 2019 17:39:10.432,4 Aug 2019 18:11:04.616,1914.185
447,4 Aug 2019 19:59:29.199,4 Aug 2019 20:25:36.483,1567.284
448,5 Aug 2019 06:34:54.666,5 Aug 2019 06:54:40.616,1185.950
449,5 Aug 2019 08:45:46.899,5 Aug 2019 09:16:15.781,1828.882
450,5 Aug 2019 11:03:39.129,5 Aug 2019 11:36:29.763,1970.635
451,5 Aug 2019 13:25:48.862,5 Aug 2019 13:58:10.428,1941.566
452,5 Aug 2019 15:47:45.836,5 Aug 2019 16:20:25.886,1960.050
453,5 Aug 2019 18:07:59.551,5 Aug 2019 18:39:23.069,1883.518
454,5 Aug 2019 20:28:52.963,5 Aug 2019 20:51:53.929,1380.966
455,6 Aug 2019 07:00:58.661,6 Aug 2019 07:24:23.534,1404.873
456,6 Aug 2019 09:13:43.408,6 Aug 2019 09:45:06.110,1882.702
457,6 Aug 2019 11:32:51.389,6 Aug 2019 12:05:32.273,1960.884
458,6 Aug 2019 13:55:15.363,6 Aug 2019 14:27:21.756,1926.393
459,6 Aug 2019 16:16:46.284,6 Aug 2019 16:49:33.950,1967.665
460,6 Aug 2019 18:36:49.582,6 Aug 2019 19:07:32.054,1842.473
461,6 Aug 2019 20:58:53.707,6 Aug 2019 21:17:31.508,1117.801
462,7 Aug 2019 07:26:48.598,7 Aug 2019 07:53:46.225,1617.627
463,7 Aug 2019 09:41:53.109,7 Aug 2019 10:14:01.067,1927.958
464,7 Aug 2019 12:02:03.757,7 Aug 2019 12:34:44.786,1961.029
465,7 Aug 2019 14:24:37.828,7 Aug 2019 14:56:43.533,1925.705
466,7 Aug 2019 16:45:41.391,7 Aug 2019 17:18:24.445,1963.054
467,7 Aug 2019 19:05:43.557,7 Aug 2019 19:34:41.512,1737.955
468,7 Aug 2019 21:30:38.826,7 Aug 2019 21:40:39.107,600.281
469,8 Aug 2019 05:48:44.776,8 Aug 2019 05:57:52.406,547.630
470,8 Aug 2019 07:53:52.156,8 Aug 2019 08:22:43.201,1731.045
471,8 Aug 2019 10:10:19.880,8 Aug 2019 10:42:49.011,1949.131
472,8 Aug 2019 12:31:30.501,8 Aug 2019 13:04:01.724,1951.222
473,8 Aug 2019 14:53:54.785,8 Aug 2019 15:26:26.400,1951.615
474,8 Aug 2019 17:14:32.664,8 Aug 2019 17:46:36.428,1923.764
475,8 Aug 2019 19:34:45.781,8 Aug 2019 20:01:39.642,1613.861
476,9 Aug 2019 06:11:20.069,9 Aug 2019 06:29:37.385,1097.316
477,9 Aug 2019 08:21:28.800,9 Aug 2019 08:51:37.515,1808.716
478,9 Aug 2019 10:38:56.607,9 Aug 2019 11:11:46.869,1970.261
479,9 Aug 2019 13:01:00.246,9 Aug 2019 13:33:23.762,1943.516
480,9 Aug 2019 15:23:04.062,9 Aug 2019 15:55:42.336,1958.274
481,9 Aug 2019 17:43:21.953,9 Aug 2019 18:14:51.207,1889.254
482,9 Aug 2019 20:04:03.384,9 Aug 2019 20:27:55.571,1432.187
483,10 Aug 2019 06:37:07.339,10 Aug 2019 06:59:33.636,1346.297
484,10 Aug 2019 08:49:20.058,10 Aug 2019 09:20:27.376,1867.318
485,10 Aug 2019 11:08:08.494,10 Aug 2019 11:40:50.031,1961.537
486,10 Aug 2019 13:30:27.974,10 Aug 2019 14:02:38.372,1930.397
487,10 Aug 2019 15:52:06.177,10 Aug 2019 16:24:52.281,1966.104
488,10 Aug 2019 18:12:11.475,10 Aug 2019 18:43:10.061,1858.586
489,10 Aug 2019 20:33:50.949,10 Aug 2019 20:53:45.592,1194.642
490,11 Aug 2019 07:02:57.135,11 Aug 2019 07:29:02.832,1565.697
491,11 Aug 2019 09:17:26.295,11 Aug 2019 09:49:22.573,1916.278
492,11 Aug 2019 11:37:17.889,11 Aug 2019 12:10:01.109,1963.220
493,11 Aug 2019 13:59:51.617,11 Aug 2019 14:32:01.575,1929.959
494,11 Aug 2019 16:21:02.602,11 Aug 2019 16:53:48.909,1966.307
495,11 Aug 2019 18:41:04.023,11 Aug 2019 19:10:37.456,1773.432
496,11 Aug 2019 21:04:51.258,11 Aug 2019 21:17:47.186,775.928
497,12 Aug 2019 07:29:39.693,12 Aug 2019 07:58:04.463,1704.771
498,12 Aug 2019 09:45:42.619,12 Aug 2019 10:18:10.352,1947.733
499,12 Aug 2019 12:06:43.385,12 Aug 2019 12:39:14.126,1950.741
500,12 Aug 2019 14:29:10.244,12 Aug 2019 15:01:37.050,1946.806
501,12 Aug 2019 16:49:54.748,12 Aug 2019 17:22:08.684,1933.936
502,12 Aug 2019 19:10:03.462,12 Aug 2019 19:37:33.853,1650.391
503,13 Aug 2019 05:48:00.415,13 Aug 2019 06:04:35.944,995.529
504,13 Aug 2019 07:57:12.821,13 Aug 2019 08:26:58.789,1785.968
505,13 Aug 2019 10:14:20.058,13 Aug 2019 10:47:05.409,1965.350
506,13 Aug 2019 12:36:11.386,13 Aug 2019 13:08:36.949,1945.564
507,13 Aug 2019 14:58:21.799,13 Aug 2019 15:30:58.429,1956.630
508,13 Aug 2019 17:18:44.374,13 Aug 2019 17:50:22.111,1897.737
509,13 Aug 2019 19:39:15.904,13 Aug 2019 20:04:06.754,1490.850
510,14 Aug 2019 06:13:14.705,14 Aug 2019 06:34:45.166,1290.462
511,14 Aug 2019 08:24:57.173,14 Aug 2019 08:55:49.968,1852.795
512,14 Aug 2019 10:43:27.270,14 Aug 2019 11:16:09.040,1961.769
513,14 Aug 2019 13:05:40.308,14 Aug 2019 13:37:55.559,1935.251
514,14 Aug 2019 15:27:25.648,14 Aug 2019 16:00:09.560,1963.912
515,14 Aug 2019 17:47:33.586,14 Aug 2019 18:18:43.242,1869.656
516,14 Aug 2019 20:08:53.017,14 Aug 2019 20:30:12.013,1278.996
517,15 Aug 2019 06:39:09.554,15 Aug 2019 07:04:11.787,1502.233
518,15 Aug 2019 08:53:02.582,15 Aug 2019 09:24:42.817,1900.235
519,15 Aug 2019 11:12:33.986,15 Aug 2019 11:45:18.920,1964.933
520,15 Aug 2019 13:35:05.012,15 Aug 2019 14:07:12.012,1927.000
521,15 Aug 2019 15:56:23.497,15 Aug 2019 16:29:11.359,1967.862
522,15 Aug 2019 18:16:24.988,15 Aug 2019 18:46:24.928,1799.940
523,15 Aug 2019 20:39:25.669,15 Aug 2019 20:55:07.294,941.625
524,16 Aug 2019 07:05:26.932,16 Aug 2019 07:33:25.436,1678.504
525,16 Aug 2019 09:21:10.375,16 Aug 2019 09:53:35.095,1944.720
526,16 Aug 2019 11:41:54.230,16 Aug 2019 12:14:30.368,1956.138
527,16 Aug 2019 14:04:25.216,16 Aug 2019 14:36:46.321,1941.105
528,16 Aug 2019 16:25:16.645,16 Aug 2019 16:57:42.846,1946.202
529,16 Aug 2019 18:45:22.077,16 Aug 2019 19:13:26.802,1684.725
530,17 Aug 2019 05:24:58.785,17 Aug 2019 05:39:15.196,856.411
531,17 Aug 2019 07:32:56.233,17 Aug 2019 08:02:19.514,1763.280
532,17 Aug 2019 09:49:44.188,17 Aug 2019 10:22:25.822,1961.633
533,17 Aug 2019 12:11:22.737,17 Aug 2019 12:43:50.061,1947.324
534,17 Aug 2019 14:33:39.032,17 Aug 2019 15:06:13.780,1954.748
535,17 Aug 2019 16:54:06.763,17 Aug 2019 17:25:53.750,1906.987
536,17 Aug 2019 19:14:30.165,17 Aug 2019 19:40:07.804,1537.639
537,18 Aug 2019 05:49:19.410,18 Aug 2019 06:09:51.567,1232.157
538,18 Aug 2019 08:00:31.747,18 Aug 2019 08:31:12.298,1840.551
539,18 Aug 2019 10:18:41.582,18 Aug 2019 10:51:28.078,1966.496
540,18 Aug 2019 12:40:52.277,18 Aug 2019 13:13:11.525,1939.248
541,18 Aug 2019 15:02:44.674,18 Aug 2019 15:35:26.012,1961.339
542,18 Aug 2019 17:22:55.855,18 Aug 2019 17:54:13.937,1878.081
543,18 Aug 2019 19:43:58.808,18 Aug 2019 20:06:19.641,1340.834
544,19 Aug 2019 06:15:23.174,19 Aug 2019 06:39:27.061,1443.887
545,19 Aug 2019 08:28:33.466,19 Aug 2019 09:00:03.417,1889.951
546,19 Aug 2019 10:47:52.298,19 Aug 2019 11:20:30.041,1957.743
547,19 Aug 2019 13:10:18.103,19 Aug 2019 13:42:27.961,1929.858
548,19 Aug 2019 15:31:44.048,19 Aug 2019 16:04:32.346,1968.298
549,19 Aug 2019 17:51:46.364,19 Aug 2019 18:22:12.126,1825.762
550,19 Aug 2019 20:14:10.670,19 Aug 2019 20:31:43.019,1052.349
551,20 Aug 2019 06:41:16.984,20 Aug 2019 07:08:45.364,1648.380
552,20 Aug 2019 08:56:42.801,20 Aug 2019 09:28:58.081,1935.280
553,20 Aug 2019 11:17:06.606,20 Aug 2019 11:49:47.917,1961.311
554,20 Aug 2019 13:39:39.727,20 Aug 2019 14:11:50.285,1930.559
555,20 Aug 2019 16:00:38.316,20 Aug 2019 16:33:15.793,1957.476
556,20 Aug 2019 18:20:41.484,20 Aug 2019 18:49:17.082,1715.598
557,20 Aug 2019 20:46:52.168,20 Aug 2019 20:53:53.553,421.385
558,21 Aug 2019 05:02:12.244,21 Aug 2019 05:13:37.472,685.228
559,21 Aug 2019 07:08:35.459,21 Aug 2019 07:37:40.131,1744.672
560,21 Aug 2019 09:25:08.532,21 Aug 2019 09:57:47.043,1958.510
561,21 Aug 2019 11:46:34.161,21 Aug 2019 12:19:03.751,1949.590
562,21 Aug 2019 14:08:55.514,21 Aug 2019 14:41:28.451,1952.937
563,21 Aug 2019 16:29:29.074,21 Aug 2019 17:01:25.719,1916.645
564,21 Aug 2019 18:49:45.884,21 Aug 2019 19:16:08.926,1583.042
565,22 Aug 2019 05:25:30.572,22 Aug 2019 05:44:51.221,1160.649
566,22 Aug 2019 07:36:12.342,22 Aug 2019 08:06:34.298,1821.956
567,22 Aug 2019 09:53:54.722,22 Aug 2019 10:26:47.326,1972.604
568,22 Aug 2019 12:16:04.118,22 Aug 2019 12:48:26.907,1942.789
569,22 Aug 2019 14:38:03.232,22 Aug 2019 15:10:42.645,1959.413
570,22 Aug 2019 16:58:18.225,22 Aug 2019 17:29:44.048,1885.823
571,22 Aug 2019 19:19:07.551,22 Aug 2019 19:42:25.577,1398.025
572,23 Aug 2019 05:51:31.371,23 Aug 2019 06:14:38.134,1386.763
573,23 Aug 2019 08:04:06.574,23 Aug 2019 08:35:24.351,1877.777
574,23 Aug 2019 10:23:06.806,23 Aug 2019 10:55:49.709,1962.903
575,23 Aug 2019 12:45:30.943,23 Aug 2019 13:17:38.630,1927.687
576,23 Aug 2019 15:07:04.209,23 Aug 2019 15:39:51.461,1967.252
577,23 Aug 2019 17:27:08.073,23 Aug 2019 17:57:57.131,1849.058
578,23 Aug 2019 19:49:03.714,23 Aug 2019 20:08:10.547,1146.832
579,24 Aug 2019 06:17:21.331,24 Aug 2019 06:44:03.429,1602.097
580,24 Aug 2019 08:32:15.051,24 Aug 2019 09:04:19.441,1924.390
581,24 Aug 2019 10:52:19.425,24 Aug 2019 11:25:01.100,1961.674
582,24 Aug 2019 13:14:53.802,24 Aug 2019 13:46:59.745,1925.943
583,24 Aug 2019 15:35:59.726,24 Aug 2019 16:08:44.533,1964.807
584,24 Aug 2019 17:56:01.558,24 Aug 2019 18:25:12.003,1750.444
585,24 Aug 2019 20:20:31.541,24 Aug 2019 20:31:28.945,657.404
586,25 Aug 2019 04:39:56.724,25 Aug 2019 04:47:37.691,460.967
587,25 Aug 2019 06:44:17.152,25 Aug 2019 07:13:01.550,1724.398
588,25 Aug 2019 09:00:40.709,25 Aug 2019 09:33:06.934,1946.226
589,25 Aug 2019 11:21:45.779,25 Aug 2019 11:54:17.289,1951.510
590,25 Aug 2019 13:44:11.302,25 Aug 2019 14:16:41.796,1950.494
591,25 Aug 2019 16:04:51.263,25 Aug 2019 16:36:58.674,1927.410
592,25 Aug 2019 18:25:02.838,25 Aug 2019 18:52:10.347,1627.509
593,26 Aug 2019 05:02:02.116,26 Aug 2019 05:19:43.198,1061.082
594,26 Aug 2019 07:11:53.397,26 Aug 2019 07:41:55.893,1802.496
595,26 Aug 2019 09:29:15.464,26 Aug 2019 10:02:03.697,1968.232
596,26 Aug 2019 11:51:15.320,26 Aug 2019 12:23:39.731,1944.411
597,26 Aug 2019 14:13:21.307,26 Aug 2019 14:45:59.085,1957.778
598,26 Aug 2019 16:33:40.642,26 Aug 2019 17:05:11.127,1890.485
599,26 Aug 2019 18:54:18.690,26 Aug 2019 19:18:29.106,1450.416
600,27 Aug 2019 05:27:39.812,27 Aug 2019 05:49:48.251,1328.439
601,27 Aug 2019 07:39:43.958,27 Aug 2019 08:10:46.146,1862.189
602,27 Aug 2019 09:58:26.966,27 Aug 2019 10:31:07.592,1960.626
603,27 Aug 2019 12:20:43.461,27 Aug 2019 12:52:56.762,1933.301
604,27 Aug 2019 14:42:23.970,27 Aug 2019 15:15:09.430,1965.460
605,27 Aug 2019 17:02:30.042,27 Aug 2019 17:33:32.439,1862.396
606,27 Aug 2019 19:24:02.651,27 Aug 2019 19:44:31.175,1228.523
607,28 Aug 2019 05:53:31.625,28 Aug 2019 06:19:17.335,1545.710
608,28 Aug 2019 08:07:49.556,28 Aug 2019 08:39:40.540,1910.985
609,28 Aug 2019 10:27:36.903,28 Aug 2019 11:00:18.795,1961.892
610,28 Aug 2019 12:50:07.454,28 Aug 2019 13:22:15.943,1928.489
611,28 Aug 2019 15:11:20.839,28 Aug 2019 15:44:07.725,1966.886
612,28 Aug 2019 17:31:22.194,28 Aug 2019 18:01:06.087,1783.892
613,28 Aug 2019 19:54:52.841,28 Aug 2019 20:08:36.288,823.447
614,29 Aug 2019 06:20:06.808,29 Aug 2019 06:48:22.725,1695.917
615,29 Aug 2019 08:36:01.196,29 Aug 2019 09:08:29.786,1948.591
616,29 Aug 2019 10:56:57.896,29 Aug 2019 11:29:30.498,1952.602
617,29 Aug 2019 13:19:26.598,29 Aug 2019 13:51:50.712,1944.114
618,29 Aug 2019 15:40:13.292,29 Aug 2019 16:12:30.801,1937.509
619,29 Aug 2019 18:00:20.835,29 Aug 2019 18:28:02.710,1661.875
620,30 Aug 2019 04:38:47.792,30 Aug 2019 04:54:43.322,955.530
621,30 Aug 2019 06:47:37.830,30 Aug 2019 07:17:17.003,1779.173
622,30 Aug 2019 09:04:39.285,30 Aug 2019 09:37:23.231,1963.947
623,30 Aug 2019 11:26:26.529,30 Aug 2019 11:58:52.622,1946.093
624,30 Aug 2019 13:48:38.889,30 Aug 2019 14:21:14.931,1956.042
625,30 Aug 2019 16:09:03.058,30 Aug 2019 16:40:43.912,1900.853
626,30 Aug 2019 18:29:31.802,30 Aug 2019 18:54:38.401,1506.600
627,31 Aug 2019 05:03:47.279,31 Aug 2019 05:25:00.465,1273.186
628,31 Aug 2019 07:15:18.989,31 Aug 2019 07:46:08.662,1849.673
629,31 Aug 2019 09:33:43.366,31 Aug 2019 10:06:26.595,1963.229
630,31 Aug 2019 11:55:55.711,31 Aug 2019 12:28:09.600,1933.889
631,31 Aug 2019 14:17:43.301,31 Aug 2019 14:50:26.399,1963.098
632,31 Aug 2019 16:37:52.212,31 Aug 2019 17:09:04.850,1872.639
633,31 Aug 2019 18:59:06.013,31 Aug 2019 19:20:45.211,1299.198
634,1 Sep 2019 05:29:46.357,1 Sep 2019 05:54:28.334,1481.977
635,1 Sep 2019 07:43:24.346,1 Sep 2019 08:15:00.883,1896.537
636,1 Sep 2019 10:02:50.165,1 Sep 2019 10:35:35.079,1964.914
637,1 Sep 2019 12:25:20.737,1 Sep 2019 12:57:28.869,1928.132
638,1 Sep 2019 14:46:41.626,1 Sep 2019 15:19:29.701,1968.075
639,1 Sep 2019 17:06:43.301,1 Sep 2019 17:36:50.905,1807.605
640,1 Sep 2019 19:29:31.416,1 Sep 2019 19:45:52.653,981.237
641,2 Sep 2019 05:55:53.728,2 Sep 2019 06:23:43.588,1669.860
642,2 Sep 2019 08:11:31.770,2 Sep 2019 08:43:54.523,1942.753
643,2 Sep 2019 10:32:09.660,2 Sep 2019 11:04:47.545,1957.884
644,2 Sep 2019 12:54:41.427,2 Sep 2019 13:26:59.720,1938.293
645,2 Sep 2019 15:15:35.121,2 Sep 2019 15:48:05.204,1950.083
646,2 Sep 2019 17:35:39.719,2 Sep 2019 18:03:53.534,1693.815
647,3 Sep 2019 04:15:52.419,3 Sep 2019 04:29:22.916,810.497
648,3 Sep 2019 06:23:20.955,3 Sep 2019 06:52:37.529,1756.574
649,3 Sep 2019 08:40:03.677,3 Sep 2019 09:12:44.155,1960.478
650,3 Sep 2019 11:01:37.899,3 Sep 2019 11:34:05.846,1947.947
651,3 Sep 2019 13:23:55.902,3 Sep 2019 13:56:30.057,1954.155
652,3 Sep 2019 15:44:25.428,3 Sep 2019 16:16:15.967,1910.539
653,3 Sep 2019 18:04:46.556,3 Sep 2019 18:30:37.660,1551.104
654,4 Sep 2019 04:39:52.349,4 Sep 2019 05:00:03.664,1211.315
655,4 Sep 2019 06:50:54.570,4 Sep 2019 07:21:30.894,1836.324
656,4 Sep 2019 09:08:57.284,4 Sep 2019 09:41:45.778,1968.494
657,4 Sep 2019 11:31:07.583,4 Sep 2019 12:03:27.544,1939.961
658,4 Sep 2019 13:53:02.179,4 Sep 2019 14:25:42.913,1960.734
659,4 Sep 2019 16:13:14.524,4 Sep 2019 16:44:35.197,1880.673
660,4 Sep 2019 18:34:12.821,4 Sep 2019 18:56:52.849,1360.028
661,5 Sep 2019 05:05:56.605,5 Sep 2019 05:29:42.800,1426.195
662,5 Sep 2019 07:18:54.386,5 Sep 2019 07:50:21.593,1887.207
663,5 Sep 2019 09:38:09.204,5 Sep 2019 10:10:48.003,1958.799
664,5 Sep 2019 12:00:33.767,5 Sep 2019 12:32:42.467,1928.699
665,5 Sep 2019 14:22:02.053,5 Sep 2019 14:54:50.093,1968.040
666,5 Sep 2019 16:42:04.791,5 Sep 2019 17:12:38.478,1833.687
667,5 Sep 2019 19:04:19.183,5 Sep 2019 19:22:23.199,1084.015
668,6 Sep 2019 05:31:48.438,6 Sep 2019 05:59:02.755,1634.317
669,6 Sep 2019 07:47:04.581,6 Sep 2019 08:19:16.407,1931.826
670,6 Sep 2019 10:07:22.169,6 Sep 2019 10:40:03.474,1961.306
671,6 Sep 2019 12:29:55.795,6 Sep 2019 13:02:04.187,1928.392
672,6 Sep 2019 14:50:56.711,6 Sep 2019 15:23:37.070,1960.358
673,6 Sep 2019 17:10:59.352,6 Sep 2019 17:39:45.070,1725.718
674,6 Sep 2019 19:36:29.306,6 Sep 2019 19:45:09.174,519.869
675,7 Sep 2019 03:53:10.227,7 Sep 2019 04:03:37.395,627.167
676,7 Sep 2019 05:59:00.209,7 Sep 2019 06:27:58.517,1738.308
677,7 Sep 2019 08:15:30.912,7 Sep 2019 08:48:04.876,1953.963
678,7 Sep 2019 10:36:49.357,7 Sep 2019 11:09:19.793,1950.437
679,7 Sep 2019 12:59:12.133,7 Sep 2019 13:31:44.526,1952.394
680,7 Sep 2019 15:19:47.703,7 Sep 2019 15:51:47.339,1919.636
681,7 Sep 2019 17:40:02.695,7 Sep 2019 18:06:41.295,1598.600
682,8 Sep 2019 04:16:09.794,8 Sep 2019 04:35:02.023,1132.229
683,8 Sep 2019 06:26:36.954,8 Sep 2019 06:56:52.772,1815.818
684,8 Sep 2019 08:44:11.815,8 Sep 2019 09:17:03.999,1972.183
685,8 Sep 2019 11:06:19.260,8 Sep 2019 11:38:41.977,1942.717
686,8 Sep 2019 13:28:20.588,8 Sep 2019 14:00:59.403,1958.815
687,8 Sep 2019 15:48:36.909,8 Sep 2019 16:20:04.645,1887.736
688,8 Sep 2019 18:09:22.384,8 Sep 2019 18:32:56.628,1414.243
689,9 Sep 2019 04:42:04.869,9 Sep 2019 05:04:52.897,1368.028
690,9 Sep 2019 06:54:29.701,9 Sep 2019 07:25:42.630,1872.929
691,9 Sep 2019 09:13:23.747,9 Sep 2019 09:46:06.755,1963.007
692,9 Sep 2019 11:35:46.499,9 Sep 2019 12:07:55.204,1928.705
693,9 Sep 2019 13:57:22.097,9 Sep 2019 14:30:08.843,1966.746
694,9 Sep 2019 16:17:26.590,9 Sep 2019 16:48:20.620,1854.030
695,9 Sep 2019 18:39:14.318,9 Sep 2019 18:58:42.735,1168.416
696,10 Sep 2019 05:07:54.503,10 Sep 2019 05:34:20.530,1586.027
697,10 Sep 2019 07:22:36.966,10 Sep 2019 07:54:37.837,1920.871
698,10 Sep 2019 09:42:35.147,10 Sep 2019 10:15:17.524,1962.377
699,10 Sep 2019 12:05:09.725,10 Sep 2019 12:37:17.476,1927.751
700,10 Sep 2019 14:26:18.030,10 Sep 2019 14:59:03.591,1965.562
701,10 Sep 2019 16:46:19.617,10 Sep 2019 17:15:41.303,1761.686
702,10 Sep 2019 19:10:27.943,10 Sep 2019 19:22:29.460,721.517
703,11 Sep 2019 03:33:52.973,11 Sep 2019 03:34:43.015,50.041
704,11 Sep 2019 03:34:47.368,11 Sep 2019 03:37:10.468,143.100
705,11 Sep 2019 05:34:44.155,11 Sep 2019 06:03:19.871,1715.716
706,11 Sep 2019 07:50:59.233,11 Sep 2019 08:23:24.898,1945.665
707,11 Sep 2019 10:12:01.214,11 Sep 2019 10:44:32.765,1951.551
708,11 Sep 2019 12:34:27.761,11 Sep 2019 13:06:57.253,1949.492
709,11 Sep 2019 14:55:09.846,11 Sep 2019 15:27:20.549,1930.702
710,11 Sep 2019 17:15:20.003,11 Sep 2019 17:42:37.726,1637.724
711,12 Sep 2019 03:52:45.602,12 Sep 2019 04:09:56.993,1031.392
712,12 Sep 2019 06:02:19.076,12 Sep 2019 06:32:14.224,1795.148
713,12 Sep 2019 08:19:34.433,12 Sep 2019 08:52:21.387,1966.954
714,12 Sep 2019 10:41:30.395,12 Sep 2019 11:13:55.334,1944.939
715,12 Sep 2019 13:03:38.505,12 Sep 2019 13:36:15.752,1957.247
716,12 Sep 2019 15:23:59.331,12 Sep 2019 15:55:32.876,1893.545
717,12 Sep 2019 17:44:34.196,12 Sep 2019 18:09:03.655,1469.459
718,13 Sep 2019 04:18:12.570,13 Sep 2019 04:40:03.727,1311.157
719,13 Sep 2019 06:30:07.366,13 Sep 2019 07:01:04.895,1857.528
720,13 Sep 2019 08:48:44.602,13 Sep 2019 09:21:25.193,1960.592
721,13 Sep 2019 11:10:58.926,13 Sep 2019 11:43:13.778,1934.851
722,13 Sep 2019 13:32:41.723,13 Sep 2019 14:05:26.478,1964.755
723,13 Sep 2019 15:52:48.631,13 Sep 2019 16:23:54.575,1865.943
724,13 Sep 2019 18:14:14.805,13 Sep 2019 18:35:09.988,1255.182
725,14 Sep 2019 04:44:06.051,14 Sep 2019 05:09:31.498,1525.447
726,14 Sep 2019 06:58:12.539,14 Sep 2019 07:29:58.516,1905.977
727,14 Sep 2019 09:17:52.862,14 Sep 2019 09:50:36.026,1963.164
728,14 Sep 2019 11:40:23.256,14 Sep 2019 12:12:30.453,1927.196
729,14 Sep 2019 14:01:39.043,14 Sep 2019 14:34:26.430,1967.387
730,14 Sep 2019 16:21:40.414,14 Sep 2019 16:51:32.476,1792.062
731,14 Sep 2019 18:44:56.160,14 Sep 2019 18:59:34.822,878.662
732,15 Sep 2019 05:10:32.955,15 Sep 2019 05:38:40.954,1687.999
733,15 Sep 2019 07:26:22.016,15 Sep 2019 07:58:49.221,1947.205
734,15 Sep 2019 09:47:12.897,15 Sep 2019 10:19:47.150,1954.253
735,15 Sep 2019 12:09:42.911,15 Sep 2019 12:42:05.550,1942.639
736,15 Sep 2019 14:30:31.815,15 Sep 2019 15:02:53.432,1941.617
737,15 Sep 2019 16:50:38.300,15 Sep 2019 17:18:31.589,1673.289
738,16 Sep 2019 03:29:37.028,16 Sep 2019 03:44:44.643,907.615
739,16 Sep 2019 05:38:03.470,16 Sep 2019 06:07:35.158,1771.688
740,16 Sep 2019 07:54:58.352,16 Sep 2019 08:27:41.212,1962.860
741,16 Sep 2019 10:16:41.673,16 Sep 2019 10:49:08.326,1946.654
742,16 Sep 2019 12:38:55.917,16 Sep 2019 13:11:31.359,1955.442
743,16 Sep 2019 14:59:21.738,16 Sep 2019 15:31:05.149,1903.411
744,16 Sep 2019 17:19:47.869,16 Sep 2019 17:45:09.312,1521.443
745,17 Sep 2019 03:54:19.120,17 Sep 2019 04:15:13.447,1254.327
746,17 Sep 2019 06:05:41.409,17 Sep 2019 06:36:27.326,1845.917
747,17 Sep 2019 08:23:59.534,17 Sep 2019 08:56:44.198,1964.664
748,17 Sep 2019 10:46:11.055,17 Sep 2019 11:18:27.577,1936.522
749,17 Sep 2019 13:08:00.912,17 Sep 2019 13:40:43.144,1962.233
750,17 Sep 2019 15:28:10.852,17 Sep 2019 15:59:26.091,1875.240
751,17 Sep 2019 17:49:19.362,17 Sep 2019 18:11:18.040,1318.678
752,18 Sep 2019 04:20:22.512,18 Sep 2019 04:44:44.748,1462.235
753,18 Sep 2019 06:33:45.570,18 Sep 2019 07:05:18.987,1893.416
754,18 Sep 2019 08:53:07.918,18 Sep 2019 09:25:49.325,1961.407
755,18 Sep 2019 11:15:36.421,18 Sep 2019 11:47:45.986,1929.565
756,18 Sep 2019 13:36:59.717,18 Sep 2019 14:09:47.943,1968.226
757,18 Sep 2019 15:57:01.653,18 Sep 2019 16:27:17.908,1816.255
758,18 Sep 2019 18:19:38.038,18 Sep 2019 18:36:33.918,1015.879
759,19 Sep 2019 04:46:20.828,19 Sep 2019 05:14:01.684,1660.856
760,19 Sep 2019 07:01:54.008,19 Sep 2019 07:34:13.484,1939.476
761,19 Sep 2019 09:22:25.130,19 Sep 2019 09:55:04.639,1959.510
762,19 Sep 2019 11:44:57.583,19 Sep 2019 12:17:12.597,1935.013
763,19 Sep 2019 14:05:53.572,19 Sep 2019 14:38:27.304,1953.732
764,19 Sep 2019 16:25:57.438,19 Sep 2019 16:54:21.941,1704.503
765,19 Sep 2019 18:53:19.473,19 Sep 2019 18:57:35.183,255.710
766,20 Sep 2019 03:06:46.136,20 Sep 2019 03:19:19.540,753.404
767,20 Sep 2019 05:13:45.326,20 Sep 2019 05:42:55.474,1750.148
768,20 Sep 2019 07:30:22.963,20 Sep 2019 08:03:02.516,1959.553
769,20 Sep 2019 09:51:53.061,20 Sep 2019 10:24:21.745,1948.684
770,20 Sep 2019 12:14:12.715,20 Sep 2019 12:46:46.267,1953.552
771,20 Sep 2019 14:34:44.082,20 Sep 2019 15:06:37.880,1913.798
772,20 Sep 2019 16:55:03.092,20 Sep 2019 17:21:08.546,1565.454
773,21 Sep 2019 03:30:26.329,21 Sep 2019 03:50:15.233,1188.904
774,21 Sep 2019 05:41:19.607,21 Sep 2019 06:11:49.452,1829.845
775,21 Sep 2019 07:59:13.138,21 Sep 2019 08:32:03.521,1970.383
776,21 Sep 2019 10:21:22.922,21 Sep 2019 10:53:44.288,1941.367
777,21 Sep 2019 12:43:19.639,21 Sep 2019 13:15:59.762,1960.123
778,21 Sep 2019 15:03:33.196,21 Sep 2019 15:34:56.417,1883.221
779,21 Sep 2019 17:24:27.118,21 Sep 2019 17:47:25.915,1378.797
780,22 Sep 2019 03:56:30.521,22 Sep 2019 04:19:57.677,1407.157
781,22 Sep 2019 06:09:16.568,22 Sep 2019 06:40:39.810,1883.242
782,22 Sep 2019 08:28:25.448,22 Sep 2019 09:01:06.001,1960.553
783,22 Sep 2019 10:50:49.387,22 Sep 2019 11:22:55.620,1926.233
784,22 Sep 2019 13:12:20.023,22 Sep 2019 13:45:07.727,1967.704
785,22 Sep 2019 15:32:23.249,22 Sep 2019 16:03:04.811,1841.562
786,22 Sep 2019 17:54:28.446,22 Sep 2019 18:13:02.568,1114.122
787,23 Sep 2019 04:22:20.560,23 Sep 2019 04:49:20.055,1619.494
788,23 Sep 2019 06:37:26.366,23 Sep 2019 07:09:34.753,1928.387
789,23 Sep 2019 08:57:37.780,23 Sep 2019 09:30:18.831,1961.052
790,23 Sep 2019 11:20:11.808,23 Sep 2019 11:52:17.810,1926.002
791,23 Sep 2019 13:41:15.079,23 Sep 2019 14:13:57.902,1962.823
792,23 Sep 2019 16:01:17.285,23 Sep 2019 16:30:13.903,1736.618
793,23 Sep 2019 18:26:15.951,23 Sep 2019 18:36:05.252,589.301
794,24 Sep 2019 02:44:12.633,24 Sep 2019 02:53:29.872,557.239
795,24 Sep 2019 04:49:25.089,24 Sep 2019 05:18:16.889,1731.800
796,24 Sep 2019 07:05:53.102,24 Sep 2019 07:38:22.751,1949.650
797,24 Sep 2019 09:27:04.576,24 Sep 2019 09:59:35.753,1951.177
798,24 Sep 2019 11:49:28.698,24 Sep 2019 12:22:00.447,1951.749
799,24 Sep 2019 14:10:06.319,24 Sep 2019 14:42:09.618,1923.299
800,24 Sep 2019 16:30:19.626,24 Sep 2019 16:57:11.730,1612.104
801,25 Sep 2019 03:06:50.896,25 Sep 2019 03:25:12.605,1101.709
802,25 Sep 2019 05:17:01.686,25 Sep 2019 05:47:11.202,1809.516
803,25 Sep 2019 07:34:30.240,25 Sep 2019 08:07:20.743,1970.503
804,25 Sep 2019 09:56:34.340,25 Sep 2019 10:28:57.729,1943.389
805,25 Sep 2019 12:18:37.885,25 Sep 2019 12:51:16.214,1958.329
806,25 Sep 2019 14:38:55.597,25 Sep 2019 15:10:24.712,1889.116
807,25 Sep 2019 16:59:37.448,25 Sep 2019 17:23:27.714,1430.266
808,26 Sep 2019 03:32:39.149,26 Sep 2019 03:55:07.774,1348.626
809,26 Sep 2019 05:44:53.103,26 Sep 2019 06:16:01.016,1867.913
810,26 Sep 2019 08:03:42.139,26 Sep 2019 08:36:23.860,1961.721
811,26 Sep 2019 10:26:02.016,26 Sep 2019 10:58:12.049,1930.033
812,26 Sep 2019 12:47:39.933,26 Sep 2019 13:20:26.109,1966.176
813,26 Sep 2019 15:07:45.133,26 Sep 2019 15:38:43.239,1858.105
814,26 Sep 2019 17:29:25.470,26 Sep 2019 17:49:17.081,1191.611
815,27 Sep 2019 03:58:28.826,27 Sep 2019 04:24:36.994,1568.168
816,27 Sep 2019 06:12:59.432,27 Sep 2019 06:44:56.253,1916.821
817,27 Sep 2019 08:32:51.500,27 Sep 2019 09:05:34.882,1963.382
818,27 Sep 2019 10:55:25.615,27 Sep 2019 11:27:35.327,1929.712
819,27 Sep 2019 13:16:36.303,27 Sep 2019 13:49:22.533,1966.230
820,27 Sep 2019 15:36:37.732,27 Sep 2019 16:06:09.846,1772.114
821,27 Sep 2019 18:00:27.116,27 Sep 2019 18:13:17.714,770.598
822,28 Sep 2019 04:25:12.236,28 Sep 2019 04:53:38.163,1705.927
823,28 Sep 2019 06:41:16.473,28 Sep 2019 07:13:43.912,1947.439
824,28 Sep 2019 09:02:17.346,28 Sep 2019 09:34:48.165,1950.818
825,28 Sep 2019 11:24:44.178,28 Sep 2019 11:57:11.301,1947.123
826,28 Sep 2019 13:45:28.412,28 Sep 2019 14:17:42.014,1933.603
827,28 Sep 2019 16:05:37.269,28 Sep 2019 16:33:06.220,1648.951
828,29 Sep 2019 02:43:30.632,29 Sep 2019 03:00:10.516,999.884
829,29 Sep 2019 04:52:45.579,29 Sep 2019 05:22:32.498,1786.918
830,29 Sep 2019 07:09:53.620,29 Sep 2019 07:42:39.163,1965.544
831,29 Sep 2019 09:31:45.472,29 Sep 2019 10:04:10.963,1945.490
832,29 Sep 2019 11:53:55.643,29 Sep 2019 12:26:32.340,1956.697
833,29 Sep 2019 14:14:18.020,29 Sep 2019 14:45:55.339,1897.319
834,29 Sep 2019 16:34:49.896,29 Sep 2019 16:59:38.625,1488.729
835,30 Sep 2019 03:08:46.411,30 Sep 2019 03:30:19.226,1292.815
836,30 Sep 2019 05:20:30.305,30 Sep 2019 05:51:23.618,1853.312
837,30 Sep 2019 07:39:01.243,30 Sep 2019 08:11:42.828,1961.585
838,30 Sep 2019 10:01:14.355,30 Sep 2019 10:33:29.776,1935.421
839,30 Sep 2019 12:22:59.421,30 Sep 2019 12:55:43.427,1964.006
840,30 Sep 2019 14:43:07.239,30 Sep 2019 15:14:16.500,1869.261
841,30 Sep 2019 17:04:27.376,30 Sep 2019 17:25:43.646,1276.270
842,1 Oct 2019 03:34:41.108,1 Oct 2019 03:59:45.696,1504.588
843,1 Oct 2019 05:48:35.672,1 Oct 2019 06:20:16.540,1900.869
844,1 Oct 2019 08:08:08.079,1 Oct 2019 08:40:52.797,1964.717
845,1 Oct 2019 10:30:39.025,1 Oct 2019 11:02:45.885,1926.861
846,1 Oct 2019 12:51:57.211,1 Oct 2019 13:24:45.025,1967.814
847,1 Oct 2019 15:11:58.680,1 Oct 2019 15:41:57.715,1799.035
848,1 Oct 2019 17:35:00.922,1 Oct 2019 17:50:35.777,934.855
849,2 Oct 2019 04:00:59.514,2 Oct 2019 04:28:59.147,1679.633
850,2 Oct 2019 06:16:43.744,2 Oct 2019 06:49:08.655,1944.910
851,2 Oct 2019 08:37:28.282,2 Oct 2019 09:10:04.201,1955.920
852,2 Oct 2019 10:59:59.167,2 Oct 2019 11:32:20.596,1941.429
853,2 Oct 2019 13:20:50.316,2 Oct 2019 13:53:16.025,1945.709
854,2 Oct 2019 15:40:55.851,2 Oct 2019 16:08:59.379,1683.528
855,3 Oct 2019 02:20:28.264,3 Oct 2019 02:34:50.220,861.956
856,3 Oct 2019 04:28:29.144,3 Oct 2019 04:57:53.245,1764.101
857,3 Oct 2019 06:45:17.741,3 Oct 2019 07:17:59.513,1961.772
858,3 Oct 2019 09:06:56.820,3 Oct 2019 09:39:24.064,1947.244
859,3 Oct 2019 11:29:12.896,3 Oct 2019 12:01:47.717,1954.821
860,3 Oct 2019 13:49:40.410,3 Oct 2019 14:21:27.009,1906.599
861,3 Oct 2019 16:10:04.095,3 Oct 2019 16:35:40.015,1535.920
862,4 Oct 2019 02:44:51.342,4 Oct 2019 03:05:26.009,1234.667
863,4 Oct 2019 04:56:04.774,4 Oct 2019 05:26:45.957,1841.183
864,4 Oct 2019 07:14:15.602,4 Oct 2019 07:47:01.846,1966.244
865,4 Oct 2019 09:36:26.341,4 Oct 2019 10:08:45.498,1939.157
866,4 Oct 2019 11:58:18.463,4 Oct 2019 12:30:59.873,1961.410
867,4 Oct 2019 14:18:29.502,4 Oct 2019 14:49:47.262,1877.759
868,4 Oct 2019 16:39:33.037,4 Oct 2019 17:01:51.476,1338.440
869,5 Oct 2019 03:10:55.151,5 Oct 2019 03:35:01.021,1445.870
870,5 Oct 2019 05:24:06.791,5 Oct 2019 05:55:37.126,1890.335
871,5 Oct 2019 07:43:26.142,5 Oct 2019 08:16:03.778,1957.637
872,5 Oct 2019 10:05:52.120,5 Oct 2019 10:38:02.017,1929.896
873,5 Oct 2019 12:27:17.770,5 Oct 2019 13:00:06.099,1968.329
874,5 Oct 2019 14:47:20.040,5 Oct 2019 15:17:44.874,1824.834
875,5 Oct 2019 17:09:45.604,5 Oct 2019 17:27:13.910,1048.305
876,6 Oct 2019 03:36:49.351,6 Oct 2019 04:04:19.168,1649.817
877,6 Oct 2019 05:52:16.077,6 Oct 2019 06:24:31.773,1935.695
878,6 Oct 2019 08:12:40.640,6 Oct 2019 08:45:21.750,1961.110
879,6 Oct 2019 10:35:13.694,6 Oct 2019 11:07:24.733,1931.039
880,6 Oct 2019 12:56:11.996,6 Oct 2019 13:28:49.103,1957.107
881,6 Oct 2019 15:16:15.228,6 Oct 2019 15:44:49.627,1714.398
882,6 Oct 2019 17:42:31.927,6 Oct 2019 17:49:19.128,407.201
883,7 Oct 2019 01:57:41.286,7 Oct 2019 02:09:13.243,691.957
884,7 Oct 2019 04:04:08.371,7 Oct 2019 04:33:13.810,1745.439
885,7 Oct 2019 06:20:42.111,7 Oct 2019 06:53:20.794,1958.683
886,7 Oct 2019 08:42:08.238,7 Oct 2019 09:14:37.723,1949.485
887,7 Oct 2019 11:04:29.412,7 Oct 2019 11:37:02.412,1952.999
888,7 Oct 2019 13:25:02.724,7 Oct 2019 13:56:59.080,1916.356
889,7 Oct 2019 15:45:19.760,7 Oct 2019 16:11:40.716,1580.956
890,8 Oct 2019 02:21:01.938,8 Oct 2019 02:40:25.909,1163.970
891,8 Oct 2019 04:31:45.171,8 Oct 2019 05:02:07.972,1822.801
892,8 Oct 2019 06:49:28.744,8 Oct 2019 07:22:21.222,1972.477
893,8 Oct 2019 09:11:38.201,8 Oct 2019 09:44:00.996,1942.795
894,8 Oct 2019 11:33:37.041,8 Oct 2019 12:06:16.531,1959.490
895,8 Oct 2019 13:53:51.869,8 Oct 2019 14:25:17.440,1885.571
896,8 Oct 2019 16:14:41.676,8 Oct 2019 16:37:57.725,1396.050
897,9 Oct 2019 02:47:03.293,9 Oct 2019 03:10:12.305,1389.012
898,9 Oct 2019 04:59:39.649,9 Oct 2019 05:30:58.047,1878.398
899,9 Oct 2019 07:18:40.820,9 Oct 2019 07:51:23.556,1962.736
900,9 Oct 2019 09:41:04.975,9 Oct 2019 10:13:12.498,1927.524
901,9 Oct 2019 12:02:37.952,9 Oct 2019 12:35:25.264,1967.311
902,9 Oct 2019 14:22:41.737,9 Oct 2019 14:53:30.054,1848.318
903,9 Oct 2019 16:44:38.377,9 Oct 2019 17:03:42.551,1144.174
904,10 Oct 2019 03:12:53.216,10 Oct 2019 03:39:37.268,1604.051
905,10 Oct 2019 05:27:48.302,10 Oct 2019 05:59:53.124,1924.821
906,10 Oct 2019 07:47:53.441,10 Oct 2019 08:20:35.024,1961.583
907,10 Oct 2019 10:10:27.788,10 Oct 2019 10:42:33.512,1925.724
908,10 Oct 2019 12:31:33.417,10 Oct 2019 13:04:18.046,1964.629
909,10 Oct 2019 14:51:35.280,10 Oct 2019 15:20:44.101,1748.821
910,10 Oct 2019 17:16:08.127,10 Oct 2019 17:26:58.915,650.788
911,11 Oct 2019 01:35:21.851,11 Oct 2019 01:43:15.866,474.015
912,11 Oct 2019 03:39:49.833,11 Oct 2019 04:08:35.237,1725.404
913,11 Oct 2019 05:56:14.135,11 Oct 2019 06:28:40.670,1946.535
914,11 Oct 2019 08:17:19.835,11 Oct 2019 08:49:51.313,1951.478
915,11 Oct 2019 10:39:45.221,11 Oct 2019 11:12:15.837,1950.616
916,11 Oct 2019 13:00:24.920,11 Oct 2019 13:32:31.893,1926.972
917,11 Oct 2019 15:20:36.671,11 Oct 2019 15:47:42.957,1626.286
918,12 Oct 2019 01:57:32.836,12 Oct 2019 02:15:18.163,1065.327
919,12 Oct 2019 04:07:26.310,12 Oct 2019 04:37:29.586,1803.276
920,12 Oct 2019 06:24:49.084,12 Oct 2019 06:57:37.563,1968.479
921,12 Oct 2019 08:46:49.414,12 Oct 2019 09:19:13.756,1944.343
922,12 Oct 2019 11:08:55.136,12 Oct 2019 11:41:32.969,1957.833
923,12 Oct 2019 13:29:14.286,12 Oct 2019 14:00:44.487,1890.201
924,12 Oct 2019 15:49:52.731,12 Oct 2019 16:14:00.779,1448.048
925,13 Oct 2019 02:23:11.782,13 Oct 2019 02:45:22.422,1330.639
926,13 Oct 2019 04:35:16.942,13 Oct 2019 05:06:19.788,1862.845
927,13 Oct 2019 06:54:00.648,13 Oct 2019 07:26:41.373,1960.725
928,13 Oct 2019 09:16:17.505,13 Oct 2019 09:48:30.445,1932.939
929,13 Oct 2019 11:37:57.730,13 Oct 2019 12:10:43.271,1965.540
930,13 Oct 2019 13:58:03.699,13 Oct 2019 14:29:05.644,1861.945
931,13 Oct 2019 16:19:37.118,13 Oct 2019 16:40:01.117,1223.999
932,14 Oct 2019 02:49:03.332,14 Oct 2019 03:14:51.529,1548.197
933,14 Oct 2019 05:03:22.631,14 Oct 2019 05:35:14.275,1911.644
934,14 Oct 2019 07:23:10.539,14 Oct 2019 07:55:52.561,1962.022
935,14 Oct 2019 09:45:41.456,14 Oct 2019 10:17:50.143,1928.687
936,14 Oct 2019 12:06:54.543,14 Oct 2019 12:39:41.362,1966.818
937,14 Oct 2019 14:26:55.897,14 Oct 2019 14:56:38.741,1782.844
938,14 Oct 2019 16:50:28.472,14 Oct 2019 17:04:05.125,816.653
939,15 Oct 2019 03:15:39.490,15 Oct 2019 03:43:56.429,1696.939
940,15 Oct 2019 05:31:34.696,15 Oct 2019 06:04:03.344,1948.648
941,15 Oct 2019 07:52:32.083,15 Oct 2019 08:25:04.396,1952.314
942,15 Oct 2019 10:15:00.536,15 Oct 2019 10:47:24.979,1944.443
943,15 Oct 2019 12:35:46.956,15 Oct 2019 13:08:03.969,1937.012
944,15 Oct 2019 14:55:54.632,15 Oct 2019 15:23:35.129,1660.497
945,16 Oct 2019 01:34:17.797,16 Oct 2019 01:50:18.424,960.627
946,16 Oct 2019 03:43:10.671,16 Oct 2019 04:12:50.715,1780.044
947,16 Oct 2019 06:00:12.905,16 Oct 2019 06:32:56.979,1964.074
948,16 Oct 2019 08:22:00.612,16 Oct 2019 08:54:26.634,1946.022
949,16 Oct 2019 10:44:12.737,16 Oct 2019 11:16:48.849,1956.112
950,16 Oct 2019 13:04:36.703,16 Oct 2019 13:36:17.187,1900.484
951,16 Oct 2019 15:25:05.774,16 Oct 2019 15:50:10.553,1504.779
952,17 Oct 2019 01:59:19.279,17 Oct 2019 02:20:34.546,1275.267
953,17 Oct 2019 04:10:52.273,17 Oct 2019 04:41:42.312,1850.038
954,17 Oct 2019 06:29:17.324,17 Oct 2019 07:02:00.376,1963.052
955,17 Oct 2019 08:51:29.763,17 Oct 2019 09:23:43.811,1934.048
956,17 Oct 2019 11:13:17.078,17 Oct 2019 11:46:00.277,1963.199
957,17 Oct 2019 13:33:25.861,17 Oct 2019 14:04:38.170,1872.309
958,17 Oct 2019 15:54:40.329,17 Oct 2019 16:16:17.170,1296.841
959,18 Oct 2019 02:25:17.681,18 Oct 2019 02:50:02.255,1484.574
960,18 Oct 2019 04:38:57.609,18 Oct 2019 05:10:34.600,1896.990
961,18 Oct 2019 06:58:24.072,18 Oct 2019 07:31:09.273,1965.202
962,18 Oct 2019 09:20:54.751,18 Oct 2019 09:53:02.720,1927.969
963,18 Oct 2019 11:42:15.342,18 Oct 2019 12:15:03.406,1968.064
964,18 Oct 2019 14:02:16.986,18 Oct 2019 14:32:23.554,1806.568
